{
  "en": {
    "changwats": [
      {
        "pid": "10",
        "name": "Bangkok",
        "latitude": "13.72917",
        "longitude": "100.52389"
      },
      {
        "pid": "11",
        "name": "Samut Prakarn",
        "latitude": "13.59556",
        "longitude": "100.60722"
      },
      {
        "pid": "12",
        "name": "Nonthaburi",
        "latitude": "13.85083",
        "longitude": "100.52222"
      },
      {
        "pid": "13",
        "name": "Pathum Thani",
        "latitude": "14.05",
        "longitude": "100.48333"
      },
      {
        "pid": "14",
        "name": "Phra Nakhon Si Ayutthaya",
        "latitude": "14.35361",
        "longitude": "100.56917"
      },
      {
        "pid": "15",
        "name": "Ang Thong",
        "latitude": "14.5925",
        "longitude": "100.45722"
      },
      {
        "pid": "16",
        "name": "Lop Buri",
        "latitude": "14.8",
        "longitude": "100.62694"
      },
      {
        "pid": "17",
        "name": "Sing Buri",
        "latitude": "14.89111",
        "longitude": "100.40306"
      },
      {
        "pid": "18",
        "name": "Chai Nat",
        "latitude": "15.18722",
        "longitude": "100.12833"
      },
      {
        "pid": "19",
        "name": "Saraburi",
        "latitude": "14.52861",
        "longitude": "100.91139"
      },
      {
        "pid": "20",
        "name": "Chon Buri",
        "latitude": "13.36222",
        "longitude": "100.98333"
      },
      {
        "pid": "21",
        "name": "Rayong",
        "latitude": "12.67417",
        "longitude": "101.27889"
      },
      {
        "pid": "22",
        "name": "Chanthaburi",
        "latitude": "12.60861",
        "longitude": "102.10389"
      },
      {
        "pid": "23",
        "name": "Trat",
        "latitude": "12.3025",
        "longitude": "102.5125"
      },
      {
        "pid": "24",
        "name": "Chachoengsao",
        "latitude": "13.69028",
        "longitude": "101.07028"
      },
      {
        "pid": "25",
        "name": "Prachin Buri",
        "latitude": "14.05667",
        "longitude": "101.37389"
      },
      {
        "pid": "26",
        "name": "Nakhon Nayok",
        "latitude": "14.2069466",
        "longitude": "101.21305"
      },
      {
        "pid": "27",
        "name": "Sa kaeo",
        "latitude": "13.824038",
        "longitude": "102.06458"
      },
      {
        "pid": "30",
        "name": "Nakhon Ratchasima",
        "latitude": "14.975",
        "longitude": "102.1"
      },
      {
        "pid": "31",
        "name": "Buri Ram",
        "latitude": "14.99417",
        "longitude": "103.10222"
      },
      {
        "pid": "32",
        "name": "Surin",
        "latitude": "14.88",
        "longitude": "103.49"
      },
      {
        "pid": "33",
        "name": "Si Sa Ket",
        "latitude": "15.11444",
        "longitude": "104.32028"
      },
      {
        "pid": "34",
        "name": "Ubon Ratchathani",
        "latitude": "15.22806",
        "longitude": "104.85944"
      },
      {
        "pid": "35",
        "name": "Yasothon",
        "latitude": "15.79722",
        "longitude": "104.14306"
      },
      {
        "pid": "36",
        "name": "Chaiyaphum",
        "latitude": "15.80556",
        "longitude": "102.03111"
      },
      {
        "pid": "37",
        "name": "Amnat Charoen",
        "latitude": "15.85",
        "longitude": "104.63333"
      },
      {
        "pid": "38",
        "name": "Bueng Kan",
        "latitude": "18.36091",
        "longitude": "103.64644"
      },
      {
        "pid": "39",
        "name": "Nong Bua Lam Phu",
        "latitude": "17.20417",
        "longitude": "102.44444"
      },
      {
        "pid": "40",
        "name": "Khon Kaen",
        "latitude": "16.43889",
        "longitude": "102.82861"
      },
      {
        "pid": "41",
        "name": "Udon Thani",
        "latitude": "17.53917",
        "longitude": "102.78444"
      },
      {
        "pid": "42",
        "name": "Loei",
        "latitude": "17.48528",
        "longitude": "101.73028"
      },
      {
        "pid": "43",
        "name": "Nong Khai",
        "latitude": "17.87444",
        "longitude": "102.73833"
      },
      {
        "pid": "44",
        "name": "Maha Sarakham",
        "latitude": "16.17722",
        "longitude": "103.30083"
      },
      {
        "pid": "45",
        "name": "Roi Et",
        "latitude": "16.05306",
        "longitude": "103.65111"
      },
      {
        "pid": "46",
        "name": "Kalasin",
        "latitude": "16.43417",
        "longitude": "103.50917"
      },
      {
        "pid": "47",
        "name": "Sakon Nakhon",
        "latitude": "17.15639",
        "longitude": "104.14556"
      },
      {
        "pid": "48",
        "name": "Nakhon Phanom",
        "latitude": "17.40694",
        "longitude": "104.78083"
      },
      {
        "pid": "49",
        "name": "Mukdahan",
        "latitude": "16.54306",
        "longitude": "104.72278"
      },
      {
        "pid": "50",
        "name": "Chiang Mai",
        "latitude": "18.79028",
        "longitude": "98.96056"
      },
      {
        "pid": "51",
        "name": "Lamphun",
        "latitude": "18.58639",
        "longitude": "99.01194"
      },
      {
        "pid": "52",
        "name": "Lampang",
        "latitude": "18.28611",
        "longitude": "99.51306"
      },
      {
        "pid": "53",
        "name": "Uttaradit",
        "latitude": "17.62306",
        "longitude": "100.09583"
      },
      {
        "pid": "54",
        "name": "Phrae",
        "latitude": "18.14528",
        "longitude": "100.14194"
      },
      {
        "pid": "55",
        "name": "Nan",
        "latitude": "18.78333",
        "longitude": "100.78333"
      },
      {
        "pid": "56",
        "name": "Phayao",
        "latitude": "19.16528",
        "longitude": "99.90361"
      },
      {
        "pid": "57",
        "name": "Chiang Rai",
        "latitude": "19.90944",
        "longitude": "99.8275"
      },
      {
        "pid": "58",
        "name": "Mae Hong Son",
        "latitude": "19.30111",
        "longitude": "97.97"
      },
      {
        "pid": "60",
        "name": "Nakhon Sawan",
        "latitude": "15.71333",
        "longitude": "100.13528"
      },
      {
        "pid": "61",
        "name": "Uthai Thani",
        "latitude": "15.3835",
        "longitude": "100.02455"
      },
      {
        "pid": "62",
        "name": "Kamphaeng Phet",
        "latitude": "16.48111",
        "longitude": "99.52222"
      },
      {
        "pid": "63",
        "name": "Tak",
        "latitude": "16.89667",
        "longitude": "99.01333"
      },
      {
        "pid": "64",
        "name": "Sukhothai",
        "latitude": "17.00583",
        "longitude": "99.82639"
      },
      {
        "pid": "65",
        "name": "Phitsanulok",
        "latitude": "16.81583",
        "longitude": "100.26361"
      },
      {
        "pid": "66",
        "name": "Phichit",
        "latitude": "16.44306",
        "longitude": "100.34667"
      },
      {
        "pid": "67",
        "name": "Phetchabun",
        "latitude": "16.42417",
        "longitude": "101.15472"
      },
      {
        "pid": "70",
        "name": "Ratchaburi",
        "latitude": "13.53556",
        "longitude": "99.81333"
      },
      {
        "pid": "71",
        "name": "Kanchanaburi",
        "latitude": "14.01944",
        "longitude": "99.53111"
      },
      {
        "pid": "72",
        "name": "Suphan Buri",
        "latitude": "14.4675",
        "longitude": "100.11694"
      },
      {
        "pid": "73",
        "name": "Nakhon Pathom",
        "latitude": "13.81556",
        "longitude": "100.03722"
      },
      {
        "pid": "74",
        "name": "Samut Sakhon",
        "latitude": "13.54861",
        "longitude": "100.2775"
      },
      {
        "pid": "75",
        "name": "Samut Songkhram",
        "latitude": "13.41972",
        "longitude": "100.00167"
      },
      {
        "pid": "76",
        "name": "Phetchaburi",
        "latitude": "13.11194",
        "longitude": "99.94583"
      },
      {
        "pid": "77",
        "name": "Prachuap Khiri Khan",
        "latitude": "11.81667",
        "longitude": "99.8"
      },
      {
        "pid": "80",
        "name": "Nakhon Si Thammarat",
        "latitude": "8.43639",
        "longitude": "99.96306"
      },
      {
        "pid": "81",
        "name": "Krabi",
        "latitude": "8.05917",
        "longitude": "98.91889"
      },
      {
        "pid": "82",
        "name": "Phang-nga",
        "latitude": "8.46444",
        "longitude": "98.53167"
      },
      {
        "pid": "83",
        "name": "Phuket",
        "latitude": "7.88",
        "longitude": "98.3925"
      },
      {
        "pid": "84",
        "name": "Surat Thani",
        "latitude": "9.13972",
        "longitude": "99.33056"
      },
      {
        "pid": "85",
        "name": "Ranong",
        "latitude": "10.03917",
        "longitude": "98.6125"
      },
      {
        "pid": "86",
        "name": "Chumphon",
        "latitude": "10.49389",
        "longitude": "99.18"
      },
      {
        "pid": "90",
        "name": "Songkhla",
        "latitude": "7.20611",
        "longitude": "100.59667"
      },
      {
        "pid": "91",
        "name": "Satun",
        "latitude": "6.61472",
        "longitude": "100.06806"
      },
      {
        "pid": "92",
        "name": "Trang",
        "latitude": "7.5575",
        "longitude": "99.61028"
      },
      {
        "pid": "93",
        "name": "Phatthalung",
        "latitude": "7.61667",
        "longitude": "100.08333"
      },
      {
        "pid": "94",
        "name": "Pattani",
        "latitude": "6.86778",
        "longitude": "101.25"
      },
      {
        "pid": "95",
        "name": "Yala",
        "latitude": "6.5425",
        "longitude": "101.28306"
      },
      {
        "pid": "96",
        "name": "Narathiwat",
        "latitude": "6.42639",
        "longitude": "101.81528"
      }
    ]
  }
}